{"nhits": 802248, "parameters": {"dataset": "100006", "timezone": "UTC", "rows": 10, "sort": ["datetimefrom"], "format": "json", "facet": ["zst_nr", "sitename", "datetimefrom", "datetimeto", "directionname", "lanename", "valuesapproved", "valuesedited", "year", "month", "day", "weekday", "timefrom"]}, "records": [{"datasetid": "100006", "recordid": "6402a1087c7a508d95bd2aff8668f4857a753fdf", "fields": {"andere": 0, "lief": 3, "pw0": 0, "sattelzug": 0, "month": 5, "zst_nr": "401", "year": "2020", "total": 55, "timefrom": "23:00", "valuesapproved": 0, "sitename": "401 Luzernerring-Br\u00fccke", "lw": 0, "directionname": "2 Flughafenstrasse", "lief0": 0, "lanename": "Spur 2", "lief_aufl": 0, "datetimeto": "2020-05-19T23:00:00+00:00", "bus": 0, "hourfrom": 23, "traffictype": "MIV", "date": "20.05.2020", "day": 20, "pw": 52, "valuesedited": 0, "lw0": 0, "datetimefrom": "2020-05-20T22:00:00+00:00", "geo_point_2d": [47.5699125893, 7.57284015165], "timeto": "00:00", "lanecode": 2, "weekday": 2, "mr": 0, "sitecode": "00000401"}, "geometry": {"type": "Point", "coordinates": [7.57284015165, 47.5699125893]}, "record_timestamp": "2020-05-22T06:52:06.659000+00:00"}, {"datasetid": "100006", "recordid": "8af3954dc0eb1ae29a5992952bf73ef5a79b9028", "fields": {"andere": 0, "lief": 5, "pw0": 0, "sattelzug": 0, "month": 5, "zst_nr": "420", "year": "2020", "total": 190, "timefrom": "23:00", "valuesapproved": 0, "sitename": "420 Nauenstrasse 73", "lw": 0, "directionname": "1 nach Grosspeter", "lief0": 0, "lanename": "Spur 1", "lief_aufl": 0, "datetimeto": "2020-05-19T23:00:00+00:00", "bus": 1, "hourfrom": 23, "traffictype": "MIV", "date": "20.05.2020", "day": 20, "pw": 180, "valuesedited": 0, "lw0": 1, "datetimefrom": "2020-05-20T22:00:00+00:00", "geo_point_2d": [47.5463057195, 7.59562321755], "timeto": "00:00", "lanecode": 1, "weekday": 2, "mr": 3, "sitecode": "00000420"}, "geometry": {"type": "Point", "coordinates": [7.59562321755, 47.5463057195]}, "record_timestamp": "2020-05-22T06:52:06.659000+00:00"}, {"datasetid": "100006", "recordid": "c7aa48c0694143037d0c9ca6f935ba15b2db7cdf", "fields": {"andere": 0, "lief": 0, "pw0": 0, "sattelzug": 0, "month": 5, "zst_nr": "411", "year": "2020", "total": 12, "timefrom": "23:00", "valuesapproved": 0, "sitename": "411 Fasanenstrasse (DB-Br\u00fccke)", "lw": 0, "directionname": "2 von Riehen (1=rechte S mit \u00d6V-Bus, 2=Unterf\u00fchrung)", "lief0": 0, "lanename": "Spur 3", "lief_aufl": 0, "datetimeto": "2020-05-19T23:00:00+00:00", "bus": 0, "hourfrom": 23, "traffictype": "MIV", "date": "20.05.2020", "day": 20, "pw": 11, "valuesedited": 0, "lw0": 0, "datetimefrom": "2020-05-20T22:00:00+00:00", "geo_point_2d": [47.573908258, 7.60222303084], "timeto": "00:00", "lanecode": 3, "weekday": 2, "mr": 1, "sitecode": "00000411"}, "geometry": {"type": "Point", "coordinates": [7.60222303084, 47.573908258]}, "record_timestamp": "2020-05-22T06:52:06.659000+00:00"}, {"datasetid": "100006", "recordid": "faf3667b442488ea3157ac54e8d12f123695d573", "fields": {"andere": 0, "lief": 1, "pw0": 0, "sattelzug": 0, "month": 5, "zst_nr": "411", "year": "2020", "total": 14, "timefrom": "23:00", "valuesapproved": 0, "sitename": "411 Fasanenstrasse (DB-Br\u00fccke)", "lw": 0, "directionname": "2 von Riehen (1=rechte S mit \u00d6V-Bus, 2=Unterf\u00fchrung)", "lief0": 0, "lanename": "Spur 4", "lief_aufl": 0, "datetimeto": "2020-05-19T23:00:00+00:00", "bus": 5, "hourfrom": 23, "traffictype": "MIV", "date": "20.05.2020", "day": 20, "pw": 8, "valuesedited": 0, "lw0": 0, "datetimefrom": "2020-05-20T22:00:00+00:00", "geo_point_2d": [47.573908258, 7.60222303084], "timeto": "00:00", "lanecode": 4, "weekday": 2, "mr": 0, "sitecode": "00000411"}, "geometry": {"type": "Point", "coordinates": [7.60222303084, 47.573908258]}, "record_timestamp": "2020-05-22T06:52:06.659000+00:00"}, {"datasetid": "100006", "recordid": "90bef1d7c3cb9c76e79f25a7a9a3a6fd41679672", "fields": {"andere": 0, "lief": 4, "pw0": 0, "sattelzug": 0, "month": 5, "zst_nr": "352", "year": "2020", "total": 127, "timefrom": "23:00", "valuesapproved": 0, "sitename": "352 Johanniterbr\u00fccke", "lw": 0, "directionname": "von Kleinbasel (1 FS mit \u00d6V)", "lief0": 0, "lanename": "Spur 2", "lief_aufl": 0, "datetimeto": "2020-05-19T23:00:00+00:00", "bus": 4, "hourfrom": 23, "traffictype": "MIV", "date": "20.05.2020", "day": 20, "pw": 105, "valuesedited": 0, "lw0": 0, "datetimefrom": "2020-05-20T22:00:00+00:00", "geo_point_2d": [47.5654536123, 7.58754940334], "timeto": "00:00", "lanecode": 2, "weekday": 2, "mr": 14, "sitecode": "00000352"}, "geometry": {"type": "Point", "coordinates": [7.58754940334, 47.5654536123]}, "record_timestamp": "2020-05-22T06:52:06.659000+00:00"}, {"datasetid": "100006", "recordid": "87cc192149dcfbf2cc0ede709b8c066daca8a79f", "fields": {"andere": 1, "lief": 3, "pw0": 0, "sattelzug": 0, "month": 5, "zst_nr": "401", "year": "2020", "total": 28, "timefrom": "23:00", "valuesapproved": 0, "sitename": "401 Luzernerring-Br\u00fccke", "lw": 0, "directionname": "1 Els\u00e4sserstrasse", "lief0": 0, "lanename": "Spur 1", "lief_aufl": 0, "datetimeto": "2020-05-19T23:00:00+00:00", "bus": 0, "hourfrom": 23, "traffictype": "MIV", "date": "20.05.2020", "day": 20, "pw": 24, "valuesedited": 0, "lw0": 0, "datetimefrom": "2020-05-20T22:00:00+00:00", "geo_point_2d": [47.5699125893, 7.57284015165], "timeto": "00:00", "lanecode": 1, "weekday": 2, "mr": 0, "sitecode": "00000401"}, "geometry": {"type": "Point", "coordinates": [7.57284015165, 47.5699125893]}, "record_timestamp": "2020-05-22T06:52:06.659000+00:00"}, {"datasetid": "100006", "recordid": "b33fc31c4b6f2ce218d26b759c09c488bef7b55e", "fields": {"andere": 0, "lief": 0, "pw0": 0, "sattelzug": 0, "month": 5, "zst_nr": "410", "year": "2020", "total": 0, "timefrom": "23:00", "valuesapproved": 0, "sitename": "410 St. Alban-Anlage 72", "lw": 0, "directionname": "1 von Bahnhof SBB", "lief0": 0, "lanename": "Spur 1", "lief_aufl": 0, "datetimeto": "2020-05-19T23:00:00+00:00", "bus": 0, "hourfrom": 23, "traffictype": "MIV", "date": "20.05.2020", "day": 20, "pw": 0, "valuesedited": 0, "lw0": 0, "datetimefrom": "2020-05-20T22:00:00+00:00", "geo_point_2d": [47.5527116018, 7.60459281521], "timeto": "00:00", "lanecode": 1, "weekday": 2, "mr": 0, "sitecode": "00000410"}, "geometry": {"type": "Point", "coordinates": [7.60459281521, 47.5527116018]}, "record_timestamp": "2020-05-22T06:52:06.659000+00:00"}, {"datasetid": "100006", "recordid": "0b90feecdf0a8a7e112f7b04c2467c85d4321383", "fields": {"andere": 0, "lief": 9, "pw0": 0, "sattelzug": 0, "month": 5, "zst_nr": "405", "year": "2020", "total": 127, "timefrom": "23:00", "valuesapproved": 0, "sitename": "405 Dorenbachviadukt", "lw": 0, "directionname": "1 nach Bahnhof SBB (ohne \u00d6V-Bus)", "lief0": 0, "lanename": "Spur 1", "lief_aufl": 0, "datetimeto": "2020-05-19T23:00:00+00:00", "bus": 0, "hourfrom": 23, "traffictype": "MIV", "date": "20.05.2020", "day": 20, "pw": 108, "valuesedited": 0, "lw0": 0, "datetimefrom": "2020-05-20T22:00:00+00:00", "geo_point_2d": [47.5441974089, 7.5771044978], "timeto": "00:00", "lanecode": 1, "weekday": 2, "mr": 10, "sitecode": "00000405"}, "geometry": {"type": "Point", "coordinates": [7.5771044978, 47.5441974089]}, "record_timestamp": "2020-05-22T06:52:06.659000+00:00"}, {"datasetid": "100006", "recordid": "7b026bd609e90dea936a2f9e8a15384b412c03c6", "fields": {"andere": 0, "lief": 0, "pw0": 0, "sattelzug": 0, "month": 5, "zst_nr": "408", "year": "2020", "total": 36, "timefrom": "23:00", "valuesapproved": 0, "sitename": "408 B\u00e4umlihofstrasse (Riehen)", "lw": 0, "directionname": "1 nach Riehen (1 FS mit \u00d6V-Bus)", "lief0": 0, "lanename": "Spur 1", "lief_aufl": 0, "datetimeto": "2020-05-19T23:00:00+00:00", "bus": 5, "hourfrom": 23, "traffictype": "MIV", "date": "20.05.2020", "day": 20, "pw": 28, "valuesedited": 0, "lw0": 0, "datetimefrom": "2020-05-20T22:00:00+00:00", "geo_point_2d": [47.5704232117, 7.62859453432], "timeto": "00:00", "lanecode": 1, "weekday": 2, "mr": 3, "sitecode": "00000408"}, "geometry": {"type": "Point", "coordinates": [7.62859453432, 47.5704232117]}, "record_timestamp": "2020-05-22T06:52:06.659000+00:00"}, {"datasetid": "100006", "recordid": "d9621456a46e363d83fa521c0aaf4bd3170d5c39", "fields": {"andere": 0, "lief": 5, "pw0": 0, "sattelzug": 0, "month": 5, "zst_nr": "408", "year": "2020", "total": 98, "timefrom": "23:00", "valuesapproved": 0, "sitename": "408 B\u00e4umlihofstrasse (Riehen)", "lw": 0, "directionname": "2 nach Basel (1 FS mit \u00d6V-Bus)", "lief0": 0, "lanename": "Spur 2", "lief_aufl": 0, "datetimeto": "2020-05-19T23:00:00+00:00", "bus": 4, "hourfrom": 23, "traffictype": "MIV", "date": "20.05.2020", "day": 20, "pw": 84, "valuesedited": 0, "lw0": 0, "datetimefrom": "2020-05-20T22:00:00+00:00", "geo_point_2d": [47.5704232117, 7.62859453432], "timeto": "00:00", "lanecode": 2, "weekday": 2, "mr": 5, "sitecode": "00000408"}, "geometry": {"type": "Point", "coordinates": [7.62859453432, 47.5704232117]}, "record_timestamp": "2020-05-22T06:52:06.659000+00:00"}], "facet_groups": [{"facets": [{"count": 33427, "path": "00:00", "state": "displayed", "name": "00:00"}, {"count": 33427, "path": "01:00", "state": "displayed", "name": "01:00"}, {"count": 33427, "path": "02:00", "state": "displayed", "name": "02:00"}, {"count": 33427, "path": "03:00", "state": "displayed", "name": "03:00"}, {"count": 33427, "path": "04:00", "state": "displayed", "name": "04:00"}, {"count": 33427, "path": "05:00", "state": "displayed", "name": "05:00"}, {"count": 33427, "path": "06:00", "state": "displayed", "name": "06:00"}, {"count": 33427, "path": "07:00", "state": "displayed", "name": "07:00"}, {"count": 33427, "path": "08:00", "state": "displayed", "name": "08:00"}, {"count": 33427, "path": "09:00", "state": "displayed", "name": "09:00"}, {"count": 33427, "path": "10:00", "state": "displayed", "name": "10:00"}, {"count": 33427, "path": "11:00", "state": "displayed", "name": "11:00"}, {"count": 33427, "path": "12:00", "state": "displayed", "name": "12:00"}, {"count": 33427, "path": "13:00", "state": "displayed", "name": "13:00"}, {"count": 33427, "path": "14:00", "state": "displayed", "name": "14:00"}, {"count": 33427, "path": "15:00", "state": "displayed", "name": "15:00"}, {"count": 33427, "path": "16:00", "state": "displayed", "name": "16:00"}, {"count": 33427, "path": "17:00", "state": "displayed", "name": "17:00"}, {"count": 33427, "path": "18:00", "state": "displayed", "name": "18:00"}, {"count": 33427, "path": "19:00", "state": "displayed", "name": "19:00"}, {"count": 33427, "path": "20:00", "state": "displayed", "name": "20:00"}, {"count": 33427, "path": "21:00", "state": "displayed", "name": "21:00"}, {"count": 33427, "path": "22:00", "state": "displayed", "name": "22:00"}, {"count": 33427, "path": "23:00", "state": "displayed", "name": "23:00"}], "name": "timefrom"}, {"facets": [{"count": 773136, "path": "1", "state": "displayed", "name": "1"}, {"count": 29112, "path": "0", "state": "displayed", "name": "0"}], "name": "valuesapproved"}, {"facets": [{"count": 69, "path": "2018", "state": "displayed", "name": "2018"}, {"count": 580102, "path": "2019", "state": "displayed", "name": "2019"}, {"count": 222077, "path": "2020", "state": "displayed", "name": "2020"}], "name": "datetimeto"}, {"facets": [{"count": 60600, "path": "350 Dreirosenbr\u00fccke lokal (mit Ein- Ausfahrten)", "state": "displayed", "name": "350 Dreirosenbr\u00fccke lokal (mit Ein- Ausfahrten)"}, {"count": 48576, "path": "403 Heuwaage-Viadukt", "state": "displayed", "name": "403 Heuwaage-Viadukt"}, {"count": 48576, "path": "411 Fasanenstrasse (DB-Br\u00fccke)", "state": "displayed", "name": "411 Fasanenstrasse (DB-Br\u00fccke)"}, {"count": 48576, "path": "420 Nauenstrasse 73", "state": "displayed", "name": "420 Nauenstrasse 73"}, {"count": 36432, "path": "415 Grosspeterstrasse 45", "state": "displayed", "name": "415 Grosspeterstrasse 45"}, {"count": 24288, "path": "235 A3-A35, Grenze CH-F", "state": "displayed", "name": "235 A3-A35, Grenze CH-F"}, {"count": 24288, "path": "352 Johanniterbr\u00fccke", "state": "displayed", "name": "352 Johanniterbr\u00fccke"}, {"count": 24288, "path": "401 Luzernerring-Br\u00fccke", "state": "displayed", "name": "401 Luzernerring-Br\u00fccke"}, {"count": 24288, "path": "405 Dorenbachviadukt", "state": "displayed", "name": "405 Dorenbachviadukt"}, {"count": 24288, "path": "406 Wasgenring 62", "state": "displayed", "name": "406 Wasgenring 62"}, {"count": 24288, "path": "408 B\u00e4umlihofstrasse (Riehen)", "state": "displayed", "name": "408 B\u00e4umlihofstrasse (Riehen)"}, {"count": 24288, "path": "409 Grenzacherstrasse 511", "state": "displayed", "name": "409 Grenzacherstrasse 511"}, {"count": 24288, "path": "410 St. Alban-Anlage 72", "state": "displayed", "name": "410 St. Alban-Anlage 72"}, {"count": 24288, "path": "412 Dornacherstrasse 49", "state": "displayed", "name": "412 Dornacherstrasse 49"}, {"count": 24288, "path": "419 Riehenring 120", "state": "displayed", "name": "419 Riehenring 120"}, {"count": 24288, "path": "651 Entenweidstrasse 74", "state": "displayed", "name": "651 Entenweidstrasse 74"}, {"count": 24288, "path": "670 Zoll CH-D, Hiltalingerstrasse", "state": "displayed", "name": "670 Zoll CH-D, Hiltalingerstrasse"}, {"count": 24288, "path": "671 Zoll CH-D, Freiburgerstrasse", "state": "displayed", "name": "671 Zoll CH-D, Freiburgerstrasse"}, {"count": 24288, "path": "672 Zoll CH-D, Weilstrasse", "state": "displayed", "name": "672 Zoll CH-D, Weilstrasse"}, {"count": 24144, "path": "402 Hochbergerstrasse 55", "state": "displayed", "name": "402 Hochbergerstrasse 55"}, {"count": 24144, "path": "659 Schlachthofstrasse", "state": "displayed", "name": "659 Schlachthofstrasse"}, {"count": 24096, "path": "413 Gundeldingerstrasse 107", "state": "displayed", "name": "413 Gundeldingerstrasse 107"}, {"count": 23712, "path": "354 Wettsteinbr\u00fccke", "state": "displayed", "name": "354 Wettsteinbr\u00fccke"}, {"count": 23712, "path": "404 Viaduktstrasse 60 (Rialto)", "state": "displayed", "name": "404 Viaduktstrasse 60 (Rialto)"}, {"count": 21456, "path": "660 Flughafenstrasse, Grenze CH-F", "state": "displayed", "name": "660 Flughafenstrasse, Grenze CH-F"}, {"count": 20376, "path": "673 Zoll CH-D, L\u00f6rracherstrasse", "state": "displayed", "name": "673 Zoll CH-D, L\u00f6rracherstrasse"}, {"count": 14448, "path": "653 Flughafenstrasse 30", "state": "displayed", "name": "653 Flughafenstrasse 30"}, {"count": 12144, "path": "416 J. Burckhardt-Strasse 85", "state": "displayed", "name": "416 J. Burckhardt-Strasse 85"}, {"count": 12144, "path": "417 Sevogelstrasse 82", "state": "displayed", "name": "417 Sevogelstrasse 82"}, {"count": 12144, "path": "656 Els\u00e4sserstrasse 146", "state": "displayed", "name": "656 Els\u00e4sserstrasse 146"}, {"count": 5520, "path": "414 Gundeldingerstrasse 428", "state": "displayed", "name": "414 Gundeldingerstrasse 428"}, {"count": 1416, "path": "407 \u00c4ussere Baselstrasse 381 (Riehen)", "state": "displayed", "name": "407 \u00c4ussere Baselstrasse 381 (Riehen)"}], "name": "sitename"}, {"facets": [{"count": 69, "path": "2018", "state": "displayed", "name": "2018"}, {"count": 580102, "path": "2019", "state": "displayed", "name": "2019"}, {"count": 222077, "path": "2020", "state": "displayed", "name": "2020"}], "name": "datetimefrom"}, {"facets": [{"count": 100488, "path": "1", "state": "displayed", "name": "1"}, {"count": 98208, "path": "3", "state": "displayed", "name": "3"}, {"count": 94608, "path": "4", "state": "displayed", "name": "4"}, {"count": 91848, "path": "2", "state": "displayed", "name": "2"}, {"count": 78768, "path": "5", "state": "displayed", "name": "5"}, {"count": 49848, "path": "12", "state": "displayed", "name": "12"}, {"count": 49104, "path": "7", "state": "displayed", "name": "7"}, {"count": 48792, "path": "8", "state": "displayed", "name": "8"}, {"count": 48360, "path": "10", "state": "displayed", "name": "10"}, {"count": 48240, "path": "11", "state": "displayed", "name": "11"}, {"count": 47184, "path": "6", "state": "displayed", "name": "6"}, {"count": 46800, "path": "9", "state": "displayed", "name": "9"}], "name": "month"}, {"facets": [{"count": 60600, "path": "350", "state": "displayed", "name": "350"}, {"count": 48576, "path": "403", "state": "displayed", "name": "403"}, {"count": 48576, "path": "411", "state": "displayed", "name": "411"}, {"count": 48576, "path": "420", "state": "displayed", "name": "420"}, {"count": 36432, "path": "415", "state": "displayed", "name": "415"}, {"count": 24288, "path": "235", "state": "displayed", "name": "235"}, {"count": 24288, "path": "352", "state": "displayed", "name": "352"}, {"count": 24288, "path": "401", "state": "displayed", "name": "401"}, {"count": 24288, "path": "405", "state": "displayed", "name": "405"}, {"count": 24288, "path": "406", "state": "displayed", "name": "406"}, {"count": 24288, "path": "408", "state": "displayed", "name": "408"}, {"count": 24288, "path": "409", "state": "displayed", "name": "409"}, {"count": 24288, "path": "410", "state": "displayed", "name": "410"}, {"count": 24288, "path": "412", "state": "displayed", "name": "412"}, {"count": 24288, "path": "419", "state": "displayed", "name": "419"}, {"count": 24288, "path": "651", "state": "displayed", "name": "651"}, {"count": 24288, "path": "670", "state": "displayed", "name": "670"}, {"count": 24288, "path": "671", "state": "displayed", "name": "671"}, {"count": 24288, "path": "672", "state": "displayed", "name": "672"}, {"count": 24144, "path": "402", "state": "displayed", "name": "402"}, {"count": 24144, "path": "659", "state": "displayed", "name": "659"}, {"count": 24096, "path": "413", "state": "displayed", "name": "413"}, {"count": 23712, "path": "354", "state": "displayed", "name": "354"}, {"count": 23712, "path": "404", "state": "displayed", "name": "404"}, {"count": 21456, "path": "660", "state": "displayed", "name": "660"}, {"count": 20376, "path": "673", "state": "displayed", "name": "673"}, {"count": 14448, "path": "653", "state": "displayed", "name": "653"}, {"count": 12144, "path": "416", "state": "displayed", "name": "416"}, {"count": 12144, "path": "417", "state": "displayed", "name": "417"}, {"count": 12144, "path": "656", "state": "displayed", "name": "656"}, {"count": 5520, "path": "414", "state": "displayed", "name": "414"}, {"count": 1416, "path": "407", "state": "displayed", "name": "407"}], "name": "zst_nr"}, {"facets": [{"count": 36360, "path": "von Kleinbasel", "state": "displayed", "name": "von Kleinbasel"}, {"count": 25704, "path": "1 nach Riehen (1 FS mit \u00d6V-Bus)", "state": "displayed", "name": "1 nach Riehen (1 FS mit \u00d6V-Bus)"}, {"count": 24288, "path": "1 nach Bahnhof SBB (1=R, 2=\u00dc)", "state": "displayed", "name": "1 nach Bahnhof SBB (1=R, 2=\u00dc)"}, {"count": 24288, "path": "1 nach Deutschland", "state": "displayed", "name": "1 nach Deutschland"}, {"count": 24288, "path": "1 nach Grosspeter", "state": "displayed", "name": "1 nach Grosspeter"}, {"count": 24288, "path": "1 nach Riehen (1=rechte S, 2=Unterf\u00fchrung mit \u00d6V-Bus)", "state": "displayed", "name": "1 nach Riehen (1=rechte S, 2=Unterf\u00fchrung mit \u00d6V-Bus)"}, {"count": 24288, "path": "1 von Bahnhof SBB  (1+2 FS)", "state": "displayed", "name": "1 von Bahnhof SBB  (1+2 FS)"}, {"count": 24288, "path": "2 nach Bahnhof SBB", "state": "displayed", "name": "2 nach Bahnhof SBB"}, {"count": 24288, "path": "2 von Bahnhof SBB (1=R, 2=\u00dc)", "state": "displayed", "name": "2 von Bahnhof SBB (1=R, 2=\u00dc)"}, {"count": 24288, "path": "2 von Grosspeter", "state": "displayed", "name": "2 von Grosspeter"}, {"count": 24288, "path": "2 von Riehen (1=rechte S mit \u00d6V-Bus, 2=Unterf\u00fchrung)", "state": "displayed", "name": "2 von Riehen (1=rechte S mit \u00d6V-Bus, 2=Unterf\u00fchrung)"}, {"count": 24288, "path": "von Dreispitz (1+2 FS, 1=rechte FS mit \u00f6V-Bus)", "state": "displayed", "name": "von Dreispitz (1+2 FS, 1=rechte FS mit \u00f6V-Bus)"}, {"count": 24240, "path": "nach Kleinbasel", "state": "displayed", "name": "nach Kleinbasel"}, {"count": 24096, "path": "nach Dreispitz (1+2 FS, 1=rechte FS mit \u00d6V-Bus)", "state": "displayed", "name": "nach Dreispitz (1+2 FS, 1=rechte FS mit \u00d6V-Bus)"}, {"count": 20376, "path": "2 von Deutschland", "state": "displayed", "name": "2 von Deutschland"}, {"count": 12144, "path": "1 Els\u00e4sserstrasse", "state": "displayed", "name": "1 Els\u00e4sserstrasse"}, {"count": 12144, "path": "1 nach Bahnhof SBB (ohne \u00d6V-Bus)", "state": "displayed", "name": "1 nach Bahnhof SBB (ohne \u00d6V-Bus)"}, {"count": 12144, "path": "1 nach Deutschland (1 FS mit \u00d6V-Bus)", "state": "displayed", "name": "1 nach Deutschland (1 FS mit \u00d6V-Bus)"}, {"count": 12144, "path": "1 nach Neubad (1 FS mit \u00d6V-Bus)", "state": "displayed", "name": "1 nach Neubad (1 FS mit \u00d6V-Bus)"}, {"count": 12144, "path": "1 von Bahnhof SBB", "state": "displayed", "name": "1 von Bahnhof SBB"}, {"count": 12144, "path": "1 von Deutschland", "state": "displayed", "name": "1 von Deutschland"}, {"count": 12144, "path": "1 von Feldbergstrasse (1 FS bei Tramhaltestelle)", "state": "displayed", "name": "1 von Feldbergstrasse (1 FS bei Tramhaltestelle)"}, {"count": 12144, "path": "1 von Frankreich", "state": "displayed", "name": "1 von Frankreich"}, {"count": 12144, "path": "1 von Kannenfeldplatz", "state": "displayed", "name": "1 von Kannenfeldplatz"}, {"count": 12144, "path": "2 Flughafenstrasse", "state": "displayed", "name": "2 Flughafenstrasse"}, {"count": 12144, "path": "2 nach Basel (1 FS mit \u00d6V-Bus)", "state": "displayed", "name": "2 nach Basel (1 FS mit \u00d6V-Bus)"}, {"count": 12144, "path": "2 nach Deutschland", "state": "displayed", "name": "2 nach Deutschland"}, {"count": 12144, "path": "2 nach Feldbergstrasse (1 FS bei Tramhaltestelle)", "state": "displayed", "name": "2 nach Feldbergstrasse (1 FS bei Tramhaltestelle)"}, {"count": 12144, "path": "2 nach Kannenfeldplatz", "state": "displayed", "name": "2 nach Kannenfeldplatz"}, {"count": 12144, "path": "2 von Bahnhof SBB (ohne \u00d6V-Bus)", "state": "displayed", "name": "2 von Bahnhof SBB (ohne \u00d6V-Bus)"}, {"count": 12144, "path": "2 von Deutschland (1 FS mit \u00d6V-Bus)", "state": "displayed", "name": "2 von Deutschland (1 FS mit \u00d6V-Bus)"}, {"count": 12144, "path": "2 von Neubad (1 FS mit \u00d6V-Bus)", "state": "displayed", "name": "2 von Neubad (1 FS mit \u00d6V-Bus)"}, {"count": 12144, "path": "2 von Riehen (1 FS mit \u00d6V-Bus)", "state": "displayed", "name": "2 von Riehen (1 FS mit \u00d6V-Bus)"}, {"count": 12144, "path": "nach Bahnhof SBB (1FS mit \u00d6V-Bus)", "state": "displayed", "name": "nach Bahnhof SBB (1FS mit \u00d6V-Bus)"}, {"count": 12144, "path": "nach Frankreich", "state": "displayed", "name": "nach Frankreich"}, {"count": 12144, "path": "nach Kleinbasel (1 FS mit \u00d6V)", "state": "displayed", "name": "nach Kleinbasel (1 FS mit \u00d6V)"}, {"count": 12144, "path": "von Frankreich", "state": "displayed", "name": "von Frankreich"}, {"count": 12144, "path": "von Gundeldingen (1 FS)", "state": "displayed", "name": "von Gundeldingen (1 FS)"}, {"count": 12144, "path": "von Kleinbasel (1 FS mit \u00d6V)", "state": "displayed", "name": "von Kleinbasel (1 FS mit \u00d6V)"}, {"count": 12072, "path": "1 von Autobahnz. F", "state": "displayed", "name": "1 von Autobahnz. F"}, {"count": 12072, "path": "1 von Rhein (1FS mit \u00d6V-Bus)", "state": "displayed", "name": "1 von Rhein (1FS mit \u00d6V-Bus)"}, {"count": 12072, "path": "2 nach Autobahnz. F", "state": "displayed", "name": "2 nach Autobahnz. F"}, {"count": 12072, "path": "2 nach Rhein (1FS mit \u00d6V-Bus)", "state": "displayed", "name": "2 nach Rhein (1FS mit \u00d6V-Bus)"}, {"count": 11856, "path": "1 nach Bahnhof SBB (1 FS mit \u00d6V-Bus)", "state": "displayed", "name": "1 nach Bahnhof SBB (1 FS mit \u00d6V-Bus)"}, {"count": 11856, "path": "1 nach Kleinbasel", "state": "displayed", "name": "1 nach Kleinbasel"}, {"count": 11856, "path": "2 von Bahnhof SBB (1 FS mit \u00d6V-Bus)", "state": "displayed", "name": "2 von Bahnhof SBB (1 FS mit \u00d6V-Bus)"}, {"count": 11856, "path": "2 von Kleinbasel", "state": "displayed", "name": "2 von Kleinbasel"}, {"count": 10728, "path": "1 von Flughafen (1 FS mit \u00d6V-Bus)", "state": "displayed", "name": "1 von Flughafen (1 FS mit \u00d6V-Bus)"}, {"count": 10728, "path": "2 nach Flughafen (1 FS mit \u00d6V-Bus)", "state": "displayed", "name": "2 nach Flughafen (1 FS mit \u00d6V-Bus)"}, {"count": 7224, "path": "1 von Frankreich (1 FS mit \u00d6V-Bus)", "state": "displayed", "name": "1 von Frankreich (1 FS mit \u00d6V-Bus)"}, {"count": 7224, "path": "2 nach Frankreich (1 FS mit \u00d6V-Bus)", "state": "displayed", "name": "2 nach Frankreich (1 FS mit \u00d6V-Bus)"}, {"count": 5520, "path": "nach Dreispitz", "state": "displayed", "name": "nach Dreispitz"}], "name": "directionname"}, {"facets": [{"count": 115776, "path": "1", "state": "displayed", "name": "1"}, {"count": 115728, "path": "2", "state": "displayed", "name": "2"}, {"count": 114264, "path": "4", "state": "displayed", "name": "4"}, {"count": 114192, "path": "5", "state": "displayed", "name": "5"}, {"count": 114192, "path": "6", "state": "displayed", "name": "6"}, {"count": 114072, "path": "3", "state": "displayed", "name": "3"}, {"count": 114024, "path": "0", "state": "displayed", "name": "0"}], "name": "weekday"}, {"facets": [{"count": 580104, "path": "2019", "state": "displayed", "name": "2019"}, {"count": 222144, "path": "2020", "state": "displayed", "name": "2020"}], "name": "year"}, {"facets": [{"count": 364080, "path": "Spur 1", "state": "displayed", "name": "Spur 1"}, {"count": 308568, "path": "Spur 2", "state": "displayed", "name": "Spur 2"}, {"count": 56784, "path": "Spur 4", "state": "displayed", "name": "Spur 4"}, {"count": 48576, "path": "Spur 3", "state": "displayed", "name": "Spur 3"}, {"count": 12120, "path": "Spur 5", "state": "displayed", "name": "Spur 5"}, {"count": 12120, "path": "Spur 6", "state": "displayed", "name": "Spur 6"}], "name": "lanename"}, {"facets": [{"count": 27072, "path": "1", "state": "displayed", "name": "1"}, {"count": 27048, "path": "3", "state": "displayed", "name": "3"}, {"count": 27048, "path": "5", "state": "displayed", "name": "5"}, {"count": 27048, "path": "6", "state": "displayed", "name": "6"}, {"count": 27048, "path": "8", "state": "displayed", "name": "8"}, {"count": 27024, "path": "2", "state": "displayed", "name": "2"}, {"count": 27000, "path": "4", "state": "displayed", "name": "4"}, {"count": 27000, "path": "9", "state": "displayed", "name": "9"}, {"count": 26928, "path": "15", "state": "displayed", "name": "15"}, {"count": 26928, "path": "16", "state": "displayed", "name": "16"}, {"count": 26904, "path": "10", "state": "displayed", "name": "10"}, {"count": 26904, "path": "11", "state": "displayed", "name": "11"}, {"count": 26904, "path": "12", "state": "displayed", "name": "12"}, {"count": 26904, "path": "13", "state": "displayed", "name": "13"}, {"count": 26904, "path": "14", "state": "displayed", "name": "14"}, {"count": 26880, "path": "7", "state": "displayed", "name": "7"}, {"count": 26880, "path": "17", "state": "displayed", "name": "17"}, {"count": 26856, "path": "19", "state": "displayed", "name": "19"}, {"count": 26808, "path": "20", "state": "displayed", "name": "20"}, {"count": 26784, "path": "18", "state": "displayed", "name": "18"}, {"count": 25392, "path": "21", "state": "displayed", "name": "21"}, {"count": 25392, "path": "22", "state": "displayed", "name": "22"}, {"count": 25392, "path": "23", "state": "displayed", "name": "23"}, {"count": 25392, "path": "24", "state": "displayed", "name": "24"}, {"count": 25392, "path": "25", "state": "displayed", "name": "25"}, {"count": 25392, "path": "26", "state": "displayed", "name": "26"}, {"count": 25392, "path": "27", "state": "displayed", "name": "27"}, {"count": 25392, "path": "28", "state": "displayed", "name": "28"}, {"count": 23760, "path": "29", "state": "displayed", "name": "29"}, {"count": 22200, "path": "30", "state": "displayed", "name": "30"}, {"count": 14280, "path": "31", "state": "displayed", "name": "31"}], "name": "day"}, {"facets": [{"count": 784175, "path": "0", "state": "displayed", "name": "0"}, {"count": 18073, "path": "1", "state": "displayed", "name": "1"}], "name": "valuesedited"}]}